1336332964442;$GPGSV,4,1,16,16,60,143,29,20,58,284,29,23,32,316,26,32,74,209,26*70
1336332964463;$GPGSV,4,2,16,30,62,074,25,31,24,043,21,01,12,227,,03,08,156,*77
1336332964476;$GPGSV,4,3,16,06,08,140,,07,02,246,,11,02,212,,13,06,299,*72
1336332964485;$GPGSV,4,4,16,14,04,101,,18,,,,29,,,,28,,,*47
1336332964498;$GPGGA,072017.0,2836.606133,N,07722.199553,E,1,06,2.1,194.3,M,-38.0,M,,*7F
1336332964505;$GPVTG,275.0,T,274.2,M,18.3,N,33.9,K,A*23
1336332964509;$GPRMC,072017.0,A,2836.606133,N,07722.199553,E,18.3,275.0,070512,0.8,E,A*39
1336332964522;$GPGSA,A,3,16,20,23,30,31,32,,,,,,,2.3,2.1,1.0*35
1336332965439;$GPGSV,4,1,16,23,32,316,38,20,58,284,35,16,60,143,31,30,62,074,29*79
1336332965447;$GPGSV,4,2,16,32,74,209,27,31,24,043,25,01,12,227,,03,08,156,*7C
1336332965459;$GPGSV,4,3,16,06,08,140,,07,02,246,,11,02,212,,13,06,299,*72
1336332965472;$GPGSV,4,4,16,14,04,101,,18,,,,29,,,,28,,,*47
1336332965504;$GPGGA,072018.0,2836.608936,N,07722.192918,E,1,06,1.5,193.5,M,-38.0,M,,*7D
1336332965513;$GPVTG,278.2,T,277.4,M,18.4,N,34.0,K,A*20
1336332965524;$GPRMC,072018.0,A,2836.608936,N,07722.192918,E,18.4,278.2,070512,0.8,E,A*35
1336332965536;$GPGSA,A,3,16,20,23,30,31,32,,,,,,,1.8,1.5,1.0*3A
1336332966438;$GPGSV,4,1,16,23,32,316,39,20,58,284,36,16,60,143,31,30,62,074,28*7A
1336332966446;$GPGSV,4,2,16,32,74,209,27,31,24,043,25,01,12,227,,03,08,156,*7C
1336332966451;$GPGSV,4,3,16,06,08,140,,07,02,246,,11,02,212,,13,06,299,*72
1336332966458;$GPGSV,4,4,16,14,04,101,,18,,,,29,,,,28,,,*47
1336332966471;$GPGGA,072019.0,2836.607641,N,07722.187929,E,1,06,1.6,193.1,M,-38.0,M,,*7D
1336332966481;$GPVTG,272.2,T,271.4,M,14.7,N,27.3,K,A*22
1336332966484;$GPRMC,072019.0,A,2836.607641,N,07722.187929,E,14.7,272.2,070512,0.8,E,A*37
1336332966493;$GPGSA,A,3,16,20,23,30,31,32,,,,,,,1.9,1.6,1.0*38
1336332967438;$GPGSV,4,1,16,23,32,316,37,20,58,284,34,16,60,143,29,30,62,074,28*7F
1336332967445;$GPGSV,4,2,16,31,24,043,27,32,74,209,26,01,12,227,,03,08,156,*7F
1336332967449;$GPGSV,4,3,16,06,08,140,,07,02,246,,11,02,212,,13,06,299,*72
1336332967458;$GPGSV,4,4,16,14,04,101,,18,,,,29,,,,28,,,*47
1336332967468;$GPGGA,072020.0,2836.606866,N,07722.183357,E,1,06,1.5,192.5,M,-38.0,M,,*7C
1336332967475;$GPVTG,273.7,T,272.9,M,13.8,N,25.6,K,A*27
1336332967478;$GPRMC,072020.0,A,2836.606866,N,07722.183357,E,13.8,273.7,070512,0.8,E,A*3C
1336332967487;$GPGSA,A,3,16,20,23,30,31,32,,,,,,,1.8,1.5,1.0*3A
1336332968437;$GPGSV,4,1,16,23,32,316,39,20,58,284,34,32,74,209,31,16,60,143,30*7C
1336332968443;$GPGSV,4,2,16,31,24,043,29,30,62,074,29,01,12,227,,03,08,156,*73
1336332968449;$GPGSV,4,3,16,06,08,140,,07,02,246,,11,02,212,,13,06,299,*72
1336332968457;$GPGSV,4,4,16,14,04,101,,18,,,,29,,,,28,,,*47
1336332968475;$GPGGA,072021.0,2836.605782,N,07722.178414,E,1,06,1.5,191.7,M,-38.0,M,,*7E
1336332968482;$GPVTG,271.6,T,270.8,M,11.7,N,21.7,K,A*2F
1336332968488;$GPRMC,072021.0,A,2836.605782,N,07722.178414,E,11.7,271.6,070512,0.8,E,A*31
1336332968492;$GPGSA,A,3,16,20,23,30,31,32,,,,,,,1.8,1.5,1.0*3A
1336332969438;$GPGSV,4,1,16,23,32,316,35,32,74,209,33,30,62,074,28,31,24,043,27*78
1336332969442;$GPGSV,4,2,16,16,60,143,26,20,58,284,26,01,12,227,24,03,08,156,*74
1336332969445;$GPGSV,4,3,16,06,08,140,,07,02,246,,11,02,212,,13,06,299,*72
1336332969447;$GPGSV,4,4,16,14,04,101,,18,,,,29,,,,28,,,*47
1336332969463;$GPGGA,072022.0,2836.605028,N,07722.174390,E,1,06,1.2,191.4,M,-38.0,M,,*79
1336332969468;$GPVTG,270.3,T,269.5,M,11.5,N,21.3,K,A*28
1336332969471;$GPRMC,072022.0,A,2836.605028,N,07722.174390,E,11.5,270.3,070512,0.8,E,A*34
1336332969473;$GPGSA,A,3,16,20,23,30,31,32,,,,,,,1.9,1.2,1.5*39
1336332970439;$GPGSV,4,1,16,23,32,316,35,32,74,209,33,30,62,074,28,31,24,043,27*78
1336332970444;$GPGSV,4,2,16,16,60,143,26,20,58,284,26,01,12,227,24,03,08,156,*74
1336332970459;$GPGSV,4,3,16,06,08,140,,07,02,246,,11,02,212,,13,06,299,*72
1336332970463;$GPGSV,4,4,16,14,04,101,,18,,,,29,,,,28,,,*47
1336332970477;$GPGGA,072022.9,2836.605046,N,07722.170762,E,1,06,1.2,190.9,M,-38.0,M,,*79
1336332970480;$GPVTG,270.3,T,269.5,M,11.5,N,21.3,K,A*28
1336332970504;$GPRMC,072022.9,A,2836.605046,N,07722.170762,E,11.5,270.3,070512,0.8,E,A*38
1336332970514;$GPGSA,A,3,16,20,23,30,31,32,,,,,,,1.9,1.2,1.5*39
1336332971439;$GPGSV,4,1,16,32,74,209,30,23,32,316,29,20,58,284,25,16,60,143,25*78
1336332971462;$GPGSV,4,2,16,01,12,227,24,30,62,074,24,31,24,043,22,03,08,156,*73
1336332971482;$GPGSV,4,3,16,06,08,140,,07,02,246,,11,02,212,,13,06,299,*72
1336332971492;$GPGSV,4,4,16,14,04,101,,18,,,,29,,,,28,,,*47
1336332971514;$GPGGA,072023.9,2836.604670,N,07722.167174,E,1,06,1.5,191.2,M,-38.0,M,,*70
1336332971549;$GPVTG,269.9,T,269.1,M,11.6,N,21.5,K,A*2B
1336332971562;$GPRMC,072023.9,A,2836.604670,N,07722.167174,E,11.6,269.9,070512,0.8,E,A*3D
1336332971601;$GPGSA,A,3,16,20,23,30,31,32,,,,,,,1.8,1.5,1.0*3A
1336332972439;$GPGSV,4,1,16,20,58,284,27,30,62,074,25,23,32,316,23,16,60,143,23*7F
1336332972445;$GPGSV,4,2,16,32,74,209,23,31,24,043,19,01,12,227,,03,08,156,*77
1336332972451;$GPGSV,4,3,16,06,08,140,,07,02,246,,11,02,212,,13,06,299,*72
1336332972455;$GPGSV,4,4,16,14,04,101,,18,,,,29,,,,28,,,*47
1336332972464;$GPGGA,072025.0,2836.605135,N,07722.163033,E,1,06,1.5,191.1,M,-38.0,M,,*7D
1336332972468;$GPVTG,273.3,T,272.5,M,12.1,N,22.3,K,A*25
1336332972470;$GPRMC,072025.0,A,2836.605135,N,07722.163033,E,12.1,273.3,070512,0.8,E,A*36
1336332972483;$GPGSA,A,3,16,20,23,30,31,32,,,,,,,1.8,1.5,1.0*3A
1336332973438;$GPGSV,4,1,16,20,58,284,31,32,74,209,29,23,32,316,29,16,60,143,29*79
1336332973445;$GPGSV,4,2,16,30,62,074,28,31,24,043,19,01,12,227,,03,08,156,*71
1336332973450;$GPGSV,4,3,16,06,08,140,,07,02,246,,11,02,212,,13,06,299,*72
1336332973455;$GPGSV,4,4,16,14,04,101,,18,,,,29,,,,28,,,*47
1336332973463;$GPGGA,072026.0,2836.606228,N,07722.157760,E,1,06,2.1,191.1,M,-38.0,M,,*73
1336332973467;$GPVTG,275.5,T,274.7,M,13.7,N,25.4,K,A*26
1336332973470;$GPRMC,072026.0,A,2836.606228,N,07722.157760,E,13.7,275.5,070512,0.8,E,A*38
1336332973482;$GPGSA,A,3,16,20,23,30,31,32,,,,,,,2.3,2.1,1.0*35
1336332974438;$GPGSV,4,1,16,20,58,284,31,32,74,209,29,23,32,316,29,16,60,143,29*79
1336332974444;$GPGSV,4,2,16,30,62,074,28,31,24,043,19,01,12,227,,03,08,156,*71
1336332974449;$GPGSV,4,3,16,06,08,140,,07,02,246,,11,02,212,,13,06,299,*72
1336332974453;$GPGSV,4,4,16,14,04,101,,18,,,,29,,,,28,,,*47
1336332974461;$GPGGA,072026.9,2836.606593,N,07722.153467,E,1,06,2.1,191.1,M,-38.0,M,,*7D
1336332974475;$GPVTG,275.5,T,274.7,M,13.7,N,25.4,K,A*26
1336332974479;$GPRMC,072026.9,A,2836.606593,N,07722.153467,E,13.7,275.5,070512,0.8,E,A*36
1336332974492;$GPGSA,A,3,16,20,23,30,31,32,,,,,,,2.3,2.1,1.0*35
1336332975437;$GPGSV,4,1,16,20,58,284,33,30,62,074,27,16,60,143,27,23,32,316,26*79
1336332975442;$GPGSV,4,2,16,32,74,209,24,01,12,227,,03,08,156,,06,08,140,*70
1336332975448;$GPGSV,4,3,16,07,02,246,,11,02,212,,13,06,299,,14,04,101,*78
1336332975452;$GPGSV,4,4,16,31,24,043,,18,,,,29,,,,28,,,*45
1336332975459;$GPGGA,072028.0,2836.606725,N,07722.147244,E,1,06,2.1,191.0,M,-38.0,M,,*76
1336332975464;$GPVTG,274.3,T,273.5,M,16.1,N,29.7,K,A*28
1336332975475;$GPRMC,072028.0,A,2836.606725,N,07722.147244,E,16.1,274.3,070512,0.8,E,A*38
1336332975481;$GPGSA,A,3,16,20,23,30,31,32,,,,,,,2.3,2.1,1.0*35
1336332976440;$GPGSV,4,1,16,20,58,284,33,16,60,143,29,30,62,074,28,23,32,316,27*79
1336332976446;$GPGSV,4,2,16,32,74,209,24,01,12,227,,03,08,156,,06,08,140,*70
1336332976450;$GPGSV,4,3,16,07,02,246,,11,02,212,,13,06,299,,14,04,101,*78
1336332976455;$GPGSV,4,4,16,31,24,043,,18,,,,29,,,,28,,,*45
1336332976466;$GPGGA,072029.0,2836.607017,N,07722.141467,E,1,06,2.4,190.9,M,-38.0,M,,*7C
1336332976472;$GPVTG,274.2,T,273.4,M,17.0,N,31.5,K,A*23
1336332976476;$GPRMC,072029.0,A,2836.607017,N,07722.141467,E,17.0,274.2,070512,0.8,E,A*3E
1336332976493;$GPGSA,A,3,16,20,23,30,31,32,,,,,,,2.6,2.4,1.0*35
1336332977438;$GPGSV,4,1,16,20,58,284,33,16,60,143,29,30,62,074,28,23,32,316,27*79
1336332977445;$GPGSV,4,2,16,32,74,209,24,01,12,227,,03,08,156,,06,08,140,*70
1336332977458;$GPGSV,4,3,16,07,02,246,,11,02,212,,13,06,299,,14,04,101,*78
1336332977477;$GPGSV,4,4,16,31,24,043,,18,,,,29,,,,28,,,*45
1336332977491;$GPGGA,072030.0,2836.607360,N,07722.136121,E,1,06,2.4,190.8,M,-38.0,M,,*71
1336332977494;$GPVTG,274.2,T,273.4,M,17.0,N,31.5,K,A*23
1336332977502;$GPRMC,072030.0,A,2836.607360,N,07722.136121,E,17.0,274.2,070512,0.8,E,A*32
1336332977524;$GPGSA,A,3,16,20,23,30,31,32,,,,,,,2.6,2.4,1.0*35
1336332978442;$GPGSV,4,1,16,20,58,284,31,16,60,143,27,23,32,316,26,30,62,074,25*79
1336332978451;$GPGSV,4,2,16,32,74,209,21,01,12,227,,03,08,156,,06,08,140,*75
1336332978481;$GPGSV,4,3,16,07,02,246,,11,02,212,,13,06,299,,14,04,101,*78
1336332978489;$GPGSV,4,4,16,31,24,043,,18,,,,29,,,,28,,,*45
1336332978512;$GPGGA,072031.0,2836.608397,N,07722.130026,E,1,05,2.1,190.8,M,-38.0,M,,*71
1336332978521;$GPVTG,275.1,T,274.3,M,17.6,N,32.7,K,A*26
1336332978523;$GPRMC,072031.0,A,2836.608397,N,07722.130026,E,17.6,275.1,070512,0.8,E,A*30
1336332978562;$GPGSA,A,3,16,20,23,30,32,,,,,,,,2.3,2.1,1.0*37
1336332979440;$GPGSV,4,1,16,20,58,284,31,32,74,209,30,23,32,316,23,16,60,143,23*71
1336332979447;$GPGSV,4,2,16,30,62,074,23,01,12,227,,03,08,156,,06,08,140,*7A
1336332979458;$GPGSV,4,3,16,07,02,246,,11,02,212,,13,06,299,,14,04,101,*78
1336332979465;$GPGSV,4,4,16,31,24,043,,18,,,,29,,,,28,,,*45
1336332979476;$GPGGA,072032.0,2836.608819,N,07722.126308,E,1,05,2.1,190.9,M,-38.0,M,,*76
1336332979484;$GPVTG,273.1,T,272.3,M,15.6,N,28.8,K,A*20
1336332979489;$GPRMC,072032.0,A,2836.608819,N,07722.126308,E,15.6,273.1,070512,0.8,E,A*32
1336332979498;$GPGSA,A,3,16,20,23,30,32,,,,,,,,2.3,2.1,1.0*37
1336332980437;$GPGSV,4,1,16,23,32,316,31,20,58,284,31,32,74,209,30,30,62,074,27*75
1336332980443;$GPGSV,4,2,16,16,60,143,22,01,12,227,,03,08,156,,06,08,140,*78
1336332980448;$GPGSV,4,3,16,07,02,246,,11,02,212,,13,06,299,,14,04,101,*78
1336332980452;$GPGSV,4,4,16,31,24,043,,18,,,,29,,,,28,,,*45
1336332980460;$GPGGA,072033.0,2836.606844,N,07722.123525,E,1,05,2.1,191.0,M,-38.0,M,,*75
1336332980464;$GPVTG,266.1,T,265.3,M,12.7,N,23.5,K,A*22
1336332980467;$GPRMC,072033.0,A,2836.606844,N,07722.123525,E,12.7,266.1,070512,0.8,E,A*3B
1336332980482;$GPGSA,A,3,16,20,23,30,32,,,,,,,,2.3,2.1,1.0*37
1336332981438;$GPGSV,4,1,16,23,32,316,38,20,58,284,34,13,06,299,28,16,60,143,28*73
1336332981442;$GPGSV,4,2,16,32,74,209,26,30,62,074,25,31,24,043,23,01,12,227,*71
1336332981448;$GPGSV,4,3,16,03,08,156,,06,08,140,,07,02,246,,11,02,212,*7D
1336332981452;$GPGSV,4,4,16,14,04,101,,18,,,,29,,,,28,,,*47
1336332981459;$GPGGA,072034.0,2836.606845,N,07722.123308,E,1,06,1.9,193.2,M,-38.0,M,,*72
1336332981464;$GPVTG,254.5,T,253.7,M,9.4,N,17.5,K,A*18
1336332981466;$GPRMC,072034.0,A,2836.606845,N,07722.123308,E,9.4,254.5,070512,0.8,E,A*08
1336332981472;$GPGSA,A,3,13,16,20,23,30,32,,,,,,,3.1,1.9,2.4*3A
1336332982438;$GPGSV,4,1,16,20,58,284,33,16,60,143,29,32,74,209,28,13,06,299,27*76
1336332982452;$GPGSV,4,2,16,23,32,316,26,30,62,074,25,31,24,043,23,01,12,227,*7C
1336332982455;$GPGSV,4,3,16,03,08,156,,06,08,140,,07,02,246,,11,02,212,*7D
1336332982461;$GPGSV,4,4,16,14,04,101,,18,,,,29,,,,28,,,*47
1336332982470;$GPGGA,072035.0,2836.606567,N,07722.122087,E,1,06,2.3,192.9,M,-38.0,M,,*78
1336332982472;$GPVTG,250.7,T,249.9,M,7.1,N,13.1,K,A*10
1336332982486;$GPRMC,072035.0,A,2836.606567,N,07722.122087,E,7.1,250.7,070512,0.8,E,A*0C
1336332982492;$GPGSA,A,3,13,16,20,23,30,32,,,,,,,3.5,2.3,2.6*35
1336332983438;$GPGSV,4,1,16,20,58,284,32,32,74,209,31,23,32,316,31,30,62,074,29*79
1336332983442;$GPGSV,4,2,16,16,60,143,29,13,06,299,26,01,12,227,,03,08,156,*7A
1336332983447;$GPGSV,4,3,16,06,08,140,,07,02,246,,11,02,212,,14,04,101,*75
1336332983452;$GPGSV,4,4,16,31,24,043,,18,,,,29,,,,28,,,*45
1336332983459;$GPGGA,072036.0,2836.608353,N,07722.122423,E,1,06,2.3,194.2,M,-38.0,M,,*73
1336332983463;$GPVTG,248.9,T,248.1,M,4.8,N,8.9,K,A*26
1336332983466;$GPRMC,072036.0,A,2836.608353,N,07722.122423,E,4.8,248.9,070512,0.8,E,A*07
1336332983482;$GPGSA,A,3,13,16,20,23,30,32,,,,,,,3.5,2.3,2.6*35
1336332984439;$GPGSV,4,1,16,32,74,209,32,23,32,316,30,16,60,143,28,30,62,074,27*78
1336332984445;$GPGSV,4,2,16,20,58,284,27,13,06,299,26,01,12,227,,03,08,156,*72
1336332984453;$GPGSV,4,3,16,06,08,140,,07,02,246,,11,02,212,,14,04,101,*75
1336332984454;$GPGSV,4,4,16,31,24,043,,18,,,,29,,,,28,,,*45
1336332984463;$GPGGA,072037.0,2836.606672,N,07722.121557,E,1,06,2.1,194.1,M,-38.0,M,,*7A
1336332984465;$GPVTG,242.7,T,241.9,M,4.9,N,9.0,K,A*2A
1336332984472;$GPRMC,072037.0,A,2836.606672,N,07722.121557,E,4.9,242.7,070512,0.8,E,A*0A
1336332984473;$GPGSA,A,3,13,16,20,23,30,32,,,,,,,2.3,2.1,1.0*35
1336332985439;$GPGSV,4,1,16,32,74,209,29,13,06,299,27,23,32,316,26,20,58,284,26*7F
1336332985444;$GPGSV,4,2,16,30,62,074,26,16,60,143,25,01,12,227,,03,08,156,*74
1336332985451;$GPGSV,4,3,16,06,08,140,,07,02,246,,11,02,212,,14,04,101,*75
1336332985455;$GPGSV,4,4,16,31,24,043,,18,,,,29,,,,28,,,*45
1336332985463;$GPGGA,072038.0,2836.607030,N,07722.119148,E,1,06,2.3,195.9,M,-38.0,M,,*7E
1336332985467;$GPVTG,256.1,T,255.3,M,5.1,N,9.5,K,A*2A
1336332985470;$GPRMC,072038.0,A,2836.607030,N,07722.119148,E,5.1,256.1,070512,0.8,E,A*0F
1336332985484;$GPGSA,A,3,13,16,20,23,30,32,,,,,,,3.5,2.3,2.6*35
1336332986443;$GPGSV,4,1,16,32,74,209,29,13,06,299,27,23,32,316,26,20,58,284,26*7F
1336332986463;$GPGSV,4,2,16,30,62,074,26,16,60,143,25,01,12,227,,03,08,156,*74
1336332986485;$GPGSV,4,3,16,06,08,140,,07,02,246,,11,02,212,,14,04,101,*75
1336332986494;$GPGSV,4,4,16,31,24,043,,18,,,,29,,,,28,,,*45
1336332986501;$GPGGA,072039.0,2836.606688,N,07722.117583,E,1,06,2.3,195.8,M,-38.0,M,,*77
1336332986506;$GPVTG,256.1,T,255.3,M,5.1,N,9.5,K,A*2A
1336332986509;$GPRMC,072039.0,A,2836.606688,N,07722.117583,E,5.1,256.1,070512,0.8,E,A*07
1336332986534;$GPGSA,A,3,13,16,20,23,30,32,,,,,,,3.5,2.3,2.6*35
1336332987438;$GPGSV,4,1,16,20,58,284,31,13,06,299,30,32,74,209,30,23,32,316,29*78
1336332987443;$GPGSV,4,2,16,30,62,074,29,16,60,143,26,31,24,043,23,01,12,227,*73
1336332987448;$GPGSV,4,3,16,03,08,156,,06,08,140,,07,02,246,,11,02,212,*7D
1336332987452;$GPGSV,4,4,16,14,04,101,,18,,,,29,,,,28,,,*47
1336332987459;$GPGGA,072040.0,2836.609007,N,07722.117262,E,1,07,1.9,199.0,M,-38.0,M,,*73
1336332987465;$GPVTG,270.0,T,269.2,M,4.9,N,9.2,K,A*2F
1336332987467;$GPRMC,072040.0,A,2836.609007,N,07722.117262,E,4.9,270.0,070512,0.8,E,A*03
1336332987489;$GPGSA,A,3,13,16,20,23,30,31,32,,,,,,3.1,1.9,2.4*38
1336332988438;$GPGSV,4,1,16,20,58,284,30,32,74,209,29,30,62,074,28,23,32,316,28*7B
1336332988443;$GPGSV,4,2,16,13,06,299,28,16,60,143,27,31,24,043,24,01,12,227,*76
1336332988448;$GPGSV,4,3,16,03,08,156,,06,08,140,,07,02,246,,11,02,212,*7D
1336332988452;$GPGSV,4,4,16,14,04,101,,18,,,,29,,,,28,,,*47
1336332988472;$GPGGA,072041.0,2836.608464,N,07722.114873,E,1,07,1.9,201.3,M,-38.0,M,,*7A
1336332988474;$GPVTG,260.4,T,259.6,M,4.6,N,8.6,K,A*27
1336332988477;$GPRMC,072041.0,A,2836.608464,N,07722.114873,E,4.6,260.4,070512,0.8,E,A*01
1336332988481;$GPGSA,A,3,13,16,20,23,30,31,32,,,,,,3.1,1.9,2.4*38
1336332989438;$GPGSV,4,1,16,13,06,299,30,30,62,074,28,20,58,284,28,23,32,316,26*7B
1336332989443;$GPGSV,4,2,16,31,24,043,26,16,60,143,25,32,74,209,25,01,12,227,*74
1336332989449;$GPGSV,4,3,16,03,08,156,,06,08,140,,07,02,246,,11,02,212,*7D
1336332989453;$GPGSV,4,4,16,14,04,101,,18,,,,29,,,,28,,,*47
1336332989461;$GPGGA,072042.0,2836.610525,N,07722.114998,E,1,07,1.9,203.2,M,-38.0,M,,*73
1336332989465;$GPVTG,268.6,T,267.8,M,4.0,N,7.5,K,A*24
1336332989469;$GPRMC,072042.0,A,2836.610525,N,07722.114998,E,4.0,268.6,070512,0.8,E,A*07
1336332989482;$GPGSA,A,3,13,16,20,23,30,31,32,,,,,,3.1,1.9,2.4*38
1336332990439;$GPGSV,4,1,16,13,06,299,30,30,62,074,28,20,58,284,28,23,32,316,26*7B
1336332990444;$GPGSV,4,2,16,31,24,043,26,16,60,143,25,32,74,209,25,01,12,227,*74
1336332990452;$GPGSV,4,3,16,03,08,156,,06,08,140,,07,02,246,,11,02,212,*7D
1336332990462;$GPGSV,4,4,16,14,04,101,,18,,,,29,,,,28,,,*47
1336332990485;$GPGGA,072043.0,2836.610497,N,07722.113724,E,1,07,1.9,203.1,M,-38.0,M,,*77
1336332990490;$GPVTG,268.6,T,267.8,M,4.0,N,7.5,K,A*24
1336332990502;$GPRMC,072043.0,A,2836.610497,N,07722.113724,E,4.0,268.6,070512,0.8,E,A*00
1336332990521;$GPGSA,A,3,13,16,20,23,30,31,32,,,,,,3.1,1.9,2.4*38
1336332991438;$GPGSV,4,1,16,16,60,143,30,20,58,284,30,30,62,074,29,32,74,209,27*7E
1336332991463;$GPGSV,4,2,16,13,06,299,25,23,32,316,24,01,12,227,,03,08,156,*77
1336332991466;$GPGSV,4,3,16,06,08,140,,07,02,246,,11,02,212,,14,04,101,*75
1336332991468;$GPGSV,4,4,16,31,24,043,,18,,,,29,,,,28,,,*45
1336332991473;$GPGGA,072044.0,2836.612101,N,07722.112424,E,1,07,2.3,203.9,M,-38.0,M,,*7B
1336332991484;$GPVTG,276.2,T,275.4,M,5.1,N,9.4,K,A*2F
1336332991485;$GPRMC,072044.0,A,2836.612101,N,07722.112424,E,5.1,276.2,070512,0.8,E,A*06
1336332991492;$GPGSA,A,3,13,16,20,23,30,31,32,,,,,,3.5,2.3,2.6*37
1336332992438;$GPGSV,4,1,16,20,58,284,31,16,60,143,29,32,74,209,29,30,62,074,28*78
1336332992443;$GPGSV,4,2,16,13,06,299,26,23,32,316,25,31,24,043,23,01,12,227,*7E
1336332992448;$GPGSV,4,3,16,03,08,156,,06,08,140,,07,02,246,,11,02,212,*7D
1336332992452;$GPGSV,4,4,16,14,04,101,,18,,,,29,,,,28,,,*47
1336332992460;$GPGGA,072045.0,2836.613021,N,07722.110550,E,1,07,1.9,204.8,M,-38.0,M,,*77
1336332992464;$GPVTG,277.8,T,277.0,M,5.8,N,10.8,K,A*1F
1336332992467;$GPRMC,072045.0,A,2836.613021,N,07722.110550,E,5.8,277.8,070512,0.8,E,A*07
1336332992481;$GPGSA,A,3,13,16,20,23,30,31,32,,,,,,3.1,1.9,2.4*38
1336332993438;$GPGSV,4,1,16,20,58,284,31,16,60,143,29,32,74,209,29,30,62,074,28*78
1336332993446;$GPGSV,4,2,16,13,06,299,26,23,32,316,25,31,24,043,23,01,12,227,*7E
1336332993460;$GPGSV,4,3,16,03,08,156,,06,08,140,,07,02,246,,11,02,212,*7D
1336332993466;$GPGSV,4,4,16,14,04,101,,18,,,,29,,,,28,,,*47
1336332993478;$GPGGA,072045.9,2836.613241,N,07722.108729,E,1,07,1.9,204.7,M,-38.0,M,,*70
1336332993504;$GPVTG,277.8,T,277.0,M,5.8,N,10.8,K,A*1F
1336332993512;$GPRMC,072045.9,A,2836.613241,N,07722.108729,E,5.8,277.8,070512,0.8,E,A*0F
1336332993522;$GPGSA,A,3,13,16,20,23,30,31,32,,,,,,3.1,1.9,2.4*38
1336332994437;$GPGSV,4,1,16,20,58,284,27,16,60,143,27,31,24,043,23,32,74,209,22*76
1336332994446;$GPGSV,4,2,16,30,62,074,22,23,32,316,21,13,06,299,21,01,12,227,*7B
1336332994452;$GPGSV,4,3,16,03,08,156,,06,08,140,,07,02,246,,11,02,212,*7D
1336332994465;$GPGSV,4,4,16,14,04,101,,18,,,,29,,,,28,,,*47
1336332994473;$GPGGA,072047.0,2836.613080,N,07722.106535,E,1,07,2.3,204.9,M,-38.0,M,,*72
1336332994485;$GPVTG,277.4,T,276.6,M,6.7,N,12.4,K,A*16
1336332994489;$GPRMC,072047.0,A,2836.613080,N,07722.106535,E,6.7,277.4,070512,0.8,E,A*0A
1336332994513;$GPGSA,A,3,13,16,20,23,30,31,32,,,,,,3.5,2.3,2.6*37
1336332995442;$GPGSV,4,1,16,20,58,284,31,16,60,143,30,30,62,074,27,32,74,209,26*70
1336332995452;$GPGSV,4,2,16,23,32,316,23,13,06,299,22,01,12,227,,03,08,156,*77
1336332995457;$GPGSV,4,3,16,06,08,140,,07,02,246,,11,02,212,,14,04,101,*75
1336332995461;$GPGSV,4,4,16,31,24,043,,18,,,,29,,,,28,,,*45
1336332995468;$GPGGA,072048.0,2836.613361,N,07722.103087,E,1,07,2.3,203.9,M,-38.0,M,,*7F
1336332995473;$GPVTG,278.4,T,277.6,M,8.8,N,16.3,K,A*1A
1336332995476;$GPRMC,072048.0,A,2836.613361,N,07722.103087,E,8.8,278.4,070512,0.8,E,A*0E
1336332995483;$GPGSA,A,3,13,16,20,23,30,31,32,,,,,,3.5,2.3,2.6*37
1336332996441;$GPGSV,4,1,16,16,60,143,32,20,58,284,31,23,32,316,30,30,62,074,29*76
1336332996446;$GPGSV,4,2,16,32,74,209,27,13,06,299,21,31,24,043,18,01,12,227,*7E
1336332996452;$GPGSV,4,3,16,03,08,156,,06,08,140,,07,02,246,,11,02,212,*7D
1336332996456;$GPGSV,4,4,16,14,04,101,,18,,,,29,,,,28,,,*47
1336332996464;$GPGGA,072049.0,2836.614147,N,07722.098360,E,1,07,1.9,204.4,M,-38.0,M,,*75
1336332996469;$GPVTG,281.8,T,281.0,M,11.0,N,20.4,K,A*2D
1336332996473;$GPRMC,072049.0,A,2836.614147,N,07722.098360,E,11.0,281.8,070512,0.8,E,A*3D
1336332996483;$GPGSA,A,3,13,16,20,23,30,31,32,,,,,,3.1,1.9,2.4*38
1336332997441;$GPGSV,4,1,16,23,32,316,35,16,60,143,33,20,58,284,32,30,62,074,30*79
1336332997446;$GPGSV,4,2,16,32,74,209,30,31,24,043,24,13,06,299,23,01,12,227,*75
1336332997450;$GPGSV,4,3,16,03,08,156,,06,08,140,,07,02,246,,11,02,212,*7D
1336332997456;$GPGSV,4,4,16,14,04,101,,18,,,,29,,,,28,,,*47
1336332997463;$GPGGA,072050.0,2836.613048,N,07722.090261,E,1,07,1.5,205.4,M,-38.0,M,,*71
1336332997467;$GPVTG,274.8,T,274.0,M,15.7,N,29.0,K,A*23
1336332997469;$GPRMC,072050.0,A,2836.613048,N,07722.090261,E,15.7,274.8,070512,0.8,E,A*3D
1336332997483;$GPGSA,A,3,13,16,20,23,30,31,32,,,,,,1.8,1.5,1.0*38
1336332998438;$GPGSV,4,1,16,23,32,316,35,20,58,284,34,16,60,143,32,32,74,209,30*73
1336332998443;$GPGSV,4,2,16,30,62,074,28,31,24,043,24,01,12,227,,03,08,156,*7F
1336332998448;$GPGSV,4,3,16,06,08,140,,07,02,246,,11,02,212,,13,06,299,*72
1336332998453;$GPGSV,4,4,16,14,04,101,,18,,,,29,,,,28,,,*47
1336332998461;$GPGGA,072051.0,2836.613894,N,07722.084370,E,1,07,2.1,205.7,M,-38.0,M,,*79
1336332998465;$GPVTG,271.8,T,271.0,M,17.0,N,31.4,K,A*2B
1336332998467;$GPRMC,072051.0,A,2836.613894,N,07722.084370,E,17.0,271.8,070512,0.8,E,A*31
1336332998493;$GPGSA,A,3,13,16,20,23,30,31,32,,,,,,2.3,2.1,1.0*37
1336332999438;$GPGSV,4,1,16,23,32,316,32,20,58,284,31,16,60,143,31,32,74,209,30*72
1336332999443;$GPGSV,4,2,16,30,62,074,28,31,24,043,25,13,06,299,24,01,12,227,*77
1336332999449;$GPGSV,4,3,16,03,08,156,,06,08,140,,07,02,246,,11,02,212,*7D
1336332999454;$GPGSV,4,4,16,14,04,101,,18,,,,29,,,,28,,,*47
1336332999461;$GPGGA,072052.0,2836.614157,N,07722.078781,E,1,07,1.9,206.7,M,-38.0,M,,*7A
1336332999465;$GPVTG,271.9,T,271.1,M,16.8,N,31.1,K,A*27
1336332999469;$GPRMC,072052.0,A,2836.614157,N,07722.078781,E,16.8,271.9,070512,0.8,E,A*32
1336332999492;$GPGSA,A,3,13,16,20,23,30,31,32,,,,,,3.1,1.9,2.4*38
1336333000437;$GPGSV,4,1,16,23,32,316,34,16,60,143,32,20,58,284,32,32,74,209,30*74
1336333000442;$GPGSV,4,2,16,30,62,074,28,31,24,043,25,13,06,299,24,01,12,227,*77
1336333000447;$GPGSV,4,3,16,03,08,156,,06,08,140,,07,02,246,,11,02,212,*7D
1336333000451;$GPGSV,4,4,16,14,04,101,,18,,,,29,,,,28,,,*47
1336333000473;$GPGGA,072053.0,2836.613982,N,07722.074862,E,1,07,2.1,205.6,M,-38.0,M,,*7B
1336333000482;$GPVTG,270.8,T,270.0,M,16.3,N,30.1,K,A*2D
1336333000484;$GPRMC,072053.0,A,2836.613982,N,07722.074862,E,16.3,270.8,070512,0.8,E,A*31
1336333000485;$GPGSA,A,3,13,16,20,23,30,31,32,,,,,,2.3,2.1,1.0*37
1336333001437;$GPGSV,4,1,16,23,32,316,34,16,60,143,32,20,58,284,32,32,74,209,30*74
1336333001442;$GPGSV,4,2,16,30,62,074,28,31,24,043,25,13,06,299,24,01,12,227,*77
1336333001458;$GPGSV,4,3,16,03,08,156,,06,08,140,,07,02,246,,11,02,212,*7D
1336333001460;$GPGSV,4,4,16,14,04,101,,18,,,,29,,,,28,,,*47
1336333001471;$GPGGA,072054.0,2836.614043,N,07722.069728,E,1,07,2.1,205.3,M,-38.0,M,,*77
1336333001478;$GPVTG,270.8,T,270.0,M,16.3,N,30.1,K,A*2D
1336333001480;$GPRMC,072054.0,A,2836.614043,N,07722.069728,E,16.3,270.8,070512,0.8,E,A*38
1336333001482;$GPGSA,A,3,13,16,20,23,30,31,32,,,,,,2.3,2.1,1.0*37
1336333002441;$GPGSV,4,1,16,32,74,209,27,23,32,316,27,20,58,284,26,16,60,143,25*73
1336333002447;$GPGSV,4,2,16,30,62,074,21,31,24,043,20,01,12,227,,03,08,156,*72
1336333002455;$GPGSV,4,3,16,06,08,140,,07,02,246,,11,02,212,,13,06,299,*72
1336333002464;$GPGSV,4,4,16,14,04,101,,18,,,,29,,,,28,,,*47
1336333002473;$GPGGA,072055.0,2836.613711,N,07722.063740,E,1,07,1.5,205.3,M,-38.0,M,,*72
1336333002479;$GPVTG,269.9,T,269.1,M,17.0,N,31.5,K,A*2A
1336333002482;$GPRMC,072055.0,A,2836.613711,N,07722.063740,E,17.0,269.9,070512,0.8,E,A*31
1336333002492;$GPGSA,A,3,13,16,20,23,30,31,32,,,,,,1.8,1.5,1.0*38
1336333003440;$GPGSV,4,1,16,23,32,316,29,32,74,209,27,16,60,143,24,20,58,284,24*7E
1336333003445;$GPGSV,4,2,16,30,62,074,20,31,24,043,20,01,12,227,,03,08,156,*73
1336333003450;$GPGSV,4,3,16,06,08,140,,07,02,246,,11,02,212,,13,06,299,*72
1336333003454;$GPGSV,4,4,16,14,04,101,,18,,,,29,,,,28,,,*47
1336333003462;$GPGGA,072056.0,2836.613974,N,07722.058312,E,1,07,2.4,205.3,M,-38.0,M,,*75
1336333003466;$GPVTG,272.1,T,271.3,M,17.3,N,32.1,K,A*27
1336333003469;$GPRMC,072056.0,A,2836.613974,N,07722.058312,E,17.3,272.1,070512,0.8,E,A*35
1336333003482;$GPGSA,A,3,13,16,20,23,30,31,32,,,,,,2.6,2.4,1.0*37
1336333004438;$GPGSV,4,1,16,23,32,316,29,32,74,209,27,16,60,143,24,20,58,284,24*7E
1336333004442;$GPGSV,4,2,16,30,62,074,20,31,24,043,20,01,12,227,,03,08,156,*73
1336333004457;$GPGSV,4,3,16,06,08,140,,07,02,246,,11,02,212,,13,06,299,*72
1336333004461;$GPGSV,4,4,16,14,04,101,,18,,,,29,,,,28,,,*47
1336333004470;$GPGGA,072057.0,2836.614151,N,07722.052853,E,1,07,2.4,205.2,M,-38.0,M,,*79
1336333004474;$GPVTG,272.1,T,271.3,M,17.3,N,32.1,K,A*27
1336333004478;$GPRMC,072057.0,A,2836.614151,N,07722.052853,E,17.3,272.1,070512,0.8,E,A*38
1336333004492;$GPGSA,A,3,13,16,20,23,30,31,32,,,,,,2.6,2.4,1.0*37
1336333005439;$GPGSV,4,1,16,23,32,316,29,20,58,284,23,16,60,143,21,30,62,074,20*76
1336333005444;$GPGSV,4,2,16,01,12,227,,03,08,156,,06,08,140,,07,02,246,*7A
1336333005450;$GPGSV,4,3,16,11,02,212,,13,06,299,,14,04,101,,31,24,043,*7E
1336333005455;$GPGSV,4,4,16,32,74,209,,18,,,,29,,,,28,,,*4F
1336333005462;$GPGGA,072058.0,2836.614737,N,07722.046277,E,1,07,2.4,205.1,M,-38.0,M,,*7A
1336333005467;$GPVTG,273.1,T,272.3,M,18.6,N,34.5,K,A*2D
1336333005470;$GPRMC,072058.0,A,2836.614737,N,07722.046277,E,18.6,273.1,070512,0.8,E,A*33
1336333005483;$GPGSA,A,3,13,16,20,23,30,31,32,,,,,,2.6,2.4,1.0*37
1336333006441;$GPGSV,4,1,16,23,32,316,28,16,60,143,22,31,24,043,21,20,58,284,20*71
1336333006447;$GPGSV,4,2,16,30,62,074,19,01,12,227,,03,08,156,,06,08,140,*73
1336333006451;$GPGSV,4,3,16,07,02,246,,11,02,212,,13,06,299,,14,04,101,*78
1336333006457;$GPGSV,4,4,16,32,74,209,,18,,,,29,,,,28,,,*4F
1336333006463;$GPGGA,072059.0,2836.614224,N,07722.038373,E,1,06,1.6,205.0,M,-38.0,M,,*71
1336333006468;$GPVTG,270.4,T,269.6,M,20.6,N,38.1,K,A*27
1336333006471;$GPRMC,072059.0,A,2836.614224,N,07722.038373,E,20.6,270.4,070512,0.8,E,A*34
1336333006491;$GPGSA,A,3,16,20,23,30,31,32,,,,,,,1.9,1.6,1.0*38
1336333007442;$GPGSV,4,1,16,23,32,316,30,16,60,143,22,20,58,284,22,30,62,074,20*7C
1336333007448;$GPGSV,4,2,16,31,24,043,18,01,12,227,,03,08,156,,06,08,140,*75
1336333007460;$GPGSV,4,3,16,07,02,246,,11,02,212,,13,06,299,,14,04,101,*78
1336333007462;$GPGSV,4,4,16,32,74,209,,18,,,,29,,,,28,,,*4F
1336333007471;$GPGGA,072100.0,2836.614038,N,07722.030204,E,1,06,1.6,205.2,M,-38.0,M,,*78
1336333007473;$GPVTG,268.7,T,267.9,M,22.1,N,40.9,K,A*2E
1336333007475;$GPRMC,072100.0,A,2836.614038,N,07722.030204,E,22.1,268.7,070512,0.8,E,A*30
1336333007492;$GPGSA,A,3,16,20,23,30,31,32,,,,,,,1.9,1.6,1.0*38
1336333008442;$GPGSV,4,1,16,23,32,316,28,16,60,143,25,20,58,284,24,30,62,074,22*76
1336333008447;$GPGSV,4,2,16,31,24,043,20,32,74,209,17,01,12,227,,03,08,156,*7A
1336333008453;$GPGSV,4,3,16,06,08,140,,07,02,246,,11,02,212,,13,06,299,*72
1336333008457;$GPGSV,4,4,16,14,04,101,,18,,,,29,,,,28,,,*47
1336333008465;$GPGGA,072101.0,2836.614579,N,07722.022658,E,1,06,1.5,205.2,M,-38.0,M,,*74
1336333008470;$GPVTG,269.9,T,269.1,M,22.7,N,42.0,K,A*2A
1336333008472;$GPRMC,072101.0,A,2836.614579,N,07722.022658,E,22.7,269.9,070512,0.8,E,A*36
1336333008482;$GPGSA,A,3,16,20,23,30,31,32,,,,,,,1.8,1.5,1.0*3A
1336333009444;$GPGSV,4,1,16,16,60,143,31,20,58,284,29,23,32,316,29,30,62,074,28*75
1336333009452;$GPGSV,4,2,16,32,74,209,26,31,24,043,20,13,06,299,15,01,12,227,*73
1336333009461;$GPGSV,4,3,16,03,08,156,,06,08,140,,07,02,246,,11,02,212,*7D
1336333009475;$GPGSV,4,4,16,14,04,101,,18,,,,29,,,,28,,,*47
1336333009481;$GPGGA,072102.0,2836.615225,N,07722.016189,E,1,07,1.9,205.2,M,-38.0,M,,*79
1336333009484;$GPVTG,271.6,T,270.8,M,22.7,N,42.0,K,A*2D
1336333009486;$GPRMC,072102.0,A,2836.615225,N,07722.016189,E,22.7,271.6,070512,0.8,E,A*30
1336333009488;$GPGSA,A,3,13,16,20,23,30,31,32,,,,,,3.1,1.9,2.4*38
1336333010442;$GPGSV,4,1,16,32,74,209,31,16,60,143,31,20,58,284,28,30,62,074,27*7F
1336333010447;$GPGSV,4,2,16,23,32,316,24,31,24,043,20,13,06,299,15,01,12,227,*7C
1336333010449;$GPGSV,4,3,16,03,08,156,,06,08,140,,07,02,246,,11,02,212,*7D
1336333010454;$GPGSV,4,4,16,14,04,101,,18,,,,29,,,,28,,,*47
1336333010462;$GPGGA,072103.0,2836.615538,N,07722.007037,E,1,07,1.9,205.5,M,-38.0,M,,*70
1336333010467;$GPVTG,272.5,T,271.7,M,23.4,N,43.2,K,A*22
1336333010469;$GPRMC,072103.0,A,2836.615538,N,07722.007037,E,23.4,272.5,070512,0.8,E,A*3C
1336333010482;$GPGSA,A,3,13,16,20,23,30,31,32,,,,,,3.1,1.9,2.4*38
1336333011438;$GPGSV,4,1,16,23,32,316,29,32,74,209,28,16,60,143,27,20,58,284,27*71
1336333011443;$GPGSV,4,2,16,30,62,074,26,31,24,043,21,01,12,227,,03,08,156,*74
1336333011453;$GPGSV,4,3,16,06,08,140,,07,02,246,,11,02,212,,13,06,299,*72
1336333011470;$GPGSV,4,4,16,14,04,101,,18,,,,29,,,,28,,,*47
1336333011478;$GPGGA,072104.0,2836.616431,N,07722.001157,E,1,07,2.1,205.4,M,-38.0,M,,*77
1336333011495;$GPVTG,272.1,T,271.3,M,23.4,N,43.2,K,A*22
1336333011498;$GPRMC,072104.0,A,2836.616431,N,07722.001157,E,23.4,272.1,070512,0.8,E,A*35
1336333011516;$GPGSA,A,3,13,16,20,23,30,31,32,,,,,,2.3,2.1,1.0*37
1336333012439;$GPGSV,4,1,16,23,32,316,29,32,74,209,28,16,60,143,27,20,58,284,27*71
1336333012445;$GPGSV,4,2,16,30,62,074,26,31,24,043,21,01,12,227,,03,08,156,*74
1336333012449;$GPGSV,4,3,16,06,08,140,,07,02,246,,11,02,212,,13,06,299,*72
1336333012454;$GPGSV,4,4,16,14,04,101,,18,,,,29,,,,28,,,*47
1336333012461;$GPGGA,072104.9,2836.616664,N,07721.993799,E,1,07,2.1,205.4,M,-38.0,M,,*79
1336333012466;$GPVTG,272.1,T,271.3,M,23.4,N,43.2,K,A*22
1336333012470;$GPRMC,072104.9,A,2836.616664,N,07721.993799,E,23.4,272.1,070512,0.8,E,A*3B
1336333012483;$GPGSA,A,3,13,16,20,23,30,31,32,,,,,,2.3,2.1,1.0*37
1336333013438;$GPGSV,4,1,16,16,61,142,31,32,73,208,29,20,58,282,28,23,33,316,26*76
1336333013443;$GPGSV,4,2,16,30,61,071,24,01,12,226,,03,08,156,,06,09,140,*7B
1336333013448;$GPGSV,4,3,16,07,02,246,,11,02,210,,13,06,299,,14,04,101,*7A
1336333013453;$GPGSV,4,4,16,31,24,043,,18,,,,29,,,,28,,,*45
1336333013459;$GPGGA,072106.0,2836.614298,N,07721.984023,E,1,07,2.1,205.2,M,-38.0,M,,*71
1336333013465;$GPVTG,268.4,T,267.6,M,24.3,N,45.0,K,A*2A
1336333013467;$GPRMC,072106.0,A,2836.614298,N,07721.984023,E,24.3,268.4,070512,0.8,E,A*3B
1336333013484;$GPGSA,A,3,13,16,20,23,30,31,32,,,,,,2.3,2.1,1.0*37
1336333014439;$GPGSV,4,1,16,23,33,316,32,32,73,208,29,20,58,282,29,16,61,142,28*7A
1336333014446;$GPGSV,4,2,16,30,61,071,27,31,24,043,24,01,12,226,,03,08,156,*77
1336333014462;$GPGSV,4,3,16,06,09,140,,07,02,246,,11,02,210,,13,06,299,*71
1336333014466;$GPGSV,4,4,16,14,04,101,,18,,,,29,,,,28,,,*47
1336333014493;$GPGGA,072107.0,2836.613744,N,07721.974201,E,1,07,1.5,204.6,M,-38.0,M,,*7C
1336333014498;$GPVTG,270.9,T,270.1,M,26.8,N,49.6,K,A*2C
1336333014512;$GPRMC,072107.0,A,2836.613744,N,07721.974201,E,26.8,270.9,070512,0.8,E,A*39
1336333014530;$GPGSA,A,3,13,16,20,23,30,31,32,,,,,,1.8,1.5,1.0*38
1336333015438;$GPGSV,4,1,16,23,33,316,32,32,73,208,29,20,58,282,29,16,61,142,28*7A
1336333015444;$GPGSV,4,2,16,30,61,071,27,31,24,043,24,01,12,226,,03,08,156,*77
1336333015448;$GPGSV,4,3,16,06,09,140,,07,02,246,,11,02,210,,13,06,299,*71
1336333015453;$GPGSV,4,4,16,14,04,101,,18,,,,29,,,,28,,,*47
1336333015461;$GPGGA,072107.9,2836.613858,N,07721.965754,E,1,07,1.5,204.4,M,-38.0,M,,*70
1336333015465;$GPVTG,270.9,T,270.1,M,26.8,N,49.6,K,A*2C
1336333015469;$GPRMC,072107.9,A,2836.613858,N,07721.965754,E,26.8,270.9,070512,0.8,E,A*37
1336333015486;$GPGSA,A,3,13,16,20,23,30,31,32,,,,,,1.8,1.5,1.0*38
1336333016442;$GPGSV,4,1,16,32,73,208,29,23,33,316,28,30,61,071,27,20,58,282,26*74
1336333016464;$GPGSV,4,2,16,16,61,142,26,31,24,043,24,01,12,226,,03,08,156,*73
1336333016472;$GPGSV,4,3,16,06,09,140,,07,02,246,,11,02,210,,13,06,299,*71
1336333016483;$GPGSV,4,4,16,14,04,101,,18,,,,29,,,,28,,,*47
1336333016511;$GPGGA,072109.0,2836.614633,N,07721.957485,E,1,06,4.4,204.5,M,-38.0,M,,*79
1336333016533;$GPVTG,271.0,T,270.2,M,26.8,N,49.7,K,A*26
1336333016542;$GPRMC,072109.0,A,2836.614633,N,07721.957485,E,26.8,271.0,070512,0.8,E,A*32
1336333016552;$GPGSA,A,3,16,20,23,30,31,32,,,,,,,4.6,4.4,1.0*35
1336333017438;$GPGSV,4,1,16,32,73,208,29,23,33,316,28,30,61,071,27,20,58,282,26*74
1336333017443;$GPGSV,4,2,16,16,61,142,26,31,24,043,24,01,12,226,,03,08,156,*73
1336333017448;$GPGSV,4,3,16,06,09,140,,07,02,246,,11,02,210,,13,06,299,*71
1336333017452;$GPGSV,4,4,16,14,04,101,,18,,,,29,,,,28,,,*47
1336333017459;$GPGGA,072110.0,2836.614761,N,07721.949024,E,1,06,4.4,204.3,M,-38.0,M,,*71
1336333017464;$GPVTG,271.0,T,270.2,M,26.8,N,49.7,K,A*26
1336333017466;$GPRMC,072110.0,A,2836.614761,N,07721.949024,E,26.8,271.0,070512,0.8,E,A*3C
1336333017481;$GPGSA,A,3,16,20,23,30,31,32,,,,,,,4.6,4.4,1.0*35
1336333018437;$GPGSV,4,1,16,23,33,316,31,16,61,142,28,20,58,282,26,31,24,043,25*76
1336333018451;$GPGSV,4,2,16,13,06,299,22,01,12,226,,03,08,156,,06,09,140,*79
1336333018456;$GPGSV,4,3,16,07,02,246,,11,02,210,,14,04,101,,30,61,071,*7E
1336333018461;$GPGSV,4,4,16,32,73,208,,18,,,,29,,,,28,,,*49
1336333018471;$GPGGA,072111.0,2836.615089,N,07721.941436,E,1,07,1.6,204.5,M,-38.0,M,,*7F
1336333018477;$GPVTG,271.1,T,270.3,M,26.1,N,48.4,K,A*2D
1336333018479;$GPRMC,072111.0,A,2836.615089,N,07721.941436,E,26.1,271.1,070512,0.8,E,A*3A
1336333018493;$GPGSA,A,3,13,16,20,23,30,31,32,,,,,,1.8,1.6,0.9*33
1336333019442;$GPGSV,4,1,16,20,58,282,32,30,61,071,29,16,61,142,27,23,33,316,26*77
1336333019446;$GPGSV,4,2,16,32,73,208,23,13,06,299,22,31,24,043,20,01,12,226,*75
1336333019457;$GPGSV,4,3,16,03,08,156,,06,09,140,,07,02,246,,11,02,210,*7E
1336333019463;$GPGSV,4,4,16,14,04,101,,18,,,,29,,,,28,,,*47
1336333019483;$GPGGA,072112.0,2836.616512,N,07721.933784,E,1,07,1.9,204.1,M,-38.0,M,,*7C
1336333019499;$GPVTG,272.6,T,271.8,M,26.5,N,49.0,K,A*22
1336333019512;$GPRMC,072112.0,A,2836.616512,N,07721.933784,E,26.5,272.6,070512,0.8,E,A*32
1336333019524;$GPGSA,A,3,13,16,20,23,30,31,32,,,,,,3.1,1.9,2.4*38
1336333020440;$GPGSV,4,1,16,20,58,282,32,30,61,071,29,16,61,142,26,23,33,316,25*75
1336333020446;$GPGSV,4,2,16,13,06,299,22,32,73,208,22,31,24,043,20,01,12,226,*74
1336333020450;$GPGSV,4,3,16,03,08,156,,06,09,140,,07,02,246,,11,02,210,*7E
1336333020473;$GPGSV,4,4,16,14,04,101,,18,,,,29,,,,28,,,*47
1336333020499;$GPGGA,072113.0,2836.617473,N,07721.925004,E,1,07,2.1,204.0,M,-38.0,M,,*78
1336333020515;$GPVTG,273.8,T,273.0,M,27.2,N,50.4,K,A*2D
1336333020518;$GPRMC,072113.0,A,2836.617473,N,07721.925004,E,27.2,273.8,070512,0.8,E,A*35
1336333020521;$GPGSA,A,3,13,16,20,23,30,31,32,,,,,,2.3,2.1,1.0*37
1336333021438;$GPGSV,4,1,16,20,58,282,33,16,61,142,29,30,61,071,28,23,33,316,22*7D
1336333021446;$GPGSV,4,2,16,32,73,208,21,01,12,226,,03,08,156,,06,09,140,*73
1336333021472;$GPGSV,4,3,16,07,02,246,,11,02,210,,13,06,299,,14,04,101,*7A
1336333021478;$GPGSV,4,4,16,31,24,043,,18,,,,29,,,,28,,,*45
1336333021493;$GPGGA,072114.0,2836.618298,N,07721.916477,E,1,07,2.1,203.7,M,-38.0,M,,*73
1336333021503;$GPVTG,274.7,T,274.0,M,27.4,N,50.8,K,A*28
1336333021514;$GPRMC,072114.0,A,2836.618298,N,07721.916477,E,27.4,274.7,070512,0.8,E,A*30
1336333021531;$GPGSA,A,3,13,16,20,23,30,31,32,,,,,,2.3,2.1,1.0*37
1336333022442;$GPGSV,4,1,16,20,58,282,31,23,33,316,30,30,61,071,29,16,61,142,29*7D
1336333022450;$GPGSV,4,2,16,32,73,208,21,01,12,226,,03,08,156,,06,09,140,*73
1336333022456;$GPGSV,4,3,16,07,02,246,,11,02,210,,13,06,299,,14,04,101,*7A
1336333022463;$GPGSV,4,4,16,31,24,043,,18,,,,29,,,,28,,,*45
1336333022473;$GPGGA,072115.0,2836.620012,N,07721.907965,E,1,07,3.2,203.4,M,-38.0,M,,*76
1336333022480;$GPVTG,275.6,T,274.8,M,27.7,N,51.4,K,A*2E
1336333022483;$GPRMC,072115.0,A,2836.620012,N,07721.907965,E,27.7,275.6,070512,0.8,E,A*37
1336333022493;$GPGSA,A,3,13,16,20,23,30,31,32,,,,,,3.4,3.2,1.0*33
1336333023441;$GPGSV,4,1,16,20,58,282,30,23,33,316,29,30,61,071,28,16,61,142,28*74
1336333023449;$GPGSV,4,2,16,32,73,208,24,01,12,226,,03,08,156,,06,09,140,*76
1336333023459;$GPGSV,4,3,16,07,02,246,,11,02,210,,13,06,299,,14,04,101,*7A
1336333023470;$GPGSV,4,4,16,31,24,043,,18,,,,29,,,,28,,,*45
1336333023490;$GPGGA,072116.0,2836.620777,N,07721.899417,E,1,07,2.1,203.4,M,-38.0,M,,*7D
1336333023495;$GPVTG,275.2,T,274.4,M,27.7,N,51.3,K,A*21
1336333023498;$GPRMC,072116.0,A,2836.620777,N,07721.899417,E,27.7,275.2,070512,0.8,E,A*3A
1336333023532;$GPGSA,A,3,13,16,20,23,30,31,32,,,,,,2.3,2.1,1.0*37
1336333024450;$GPGSV,4,1,16,20,58,282,29,23,33,316,29,16,61,142,28,30,61,071,26*72
1336333024455;$GPGSV,4,2,16,32,73,208,25,01,12,226,,03,08,156,,06,09,140,*77
1336333024461;$GPGSV,4,3,16,07,02,246,,11,02,210,,13,06,299,,14,04,101,*7A
1336333024468;$GPGSV,4,4,16,31,24,043,,18,,,,29,,,,28,,,*45
1336333024479;$GPGGA,072117.0,2836.621497,N,07721.890015,E,1,07,2.1,203.4,M,-38.0,M,,*7F
1336333024485;$GPVTG,274.9,T,274.1,M,28.4,N,52.6,K,A*24
1336333024488;$GPRMC,072117.0,A,2836.621497,N,07721.890015,E,28.4,274.9,070512,0.8,E,A*3E
1336333024504;$GPGSA,A,3,13,16,20,23,30,31,32,,,,,,2.3,2.1,1.0*37
1336333025441;$GPGSV,4,1,16,20,58,282,28,16,61,142,27,23,33,316,24,30,61,071,23*74
1336333025447;$GPGSV,4,2,16,32,73,208,23,01,12,226,,03,08,156,,06,09,140,*71
1336333025452;$GPGSV,4,3,16,07,02,246,,11,02,210,,13,06,299,,14,04,101,*7A
1336333025460;$GPGSV,4,4,16,31,24,043,,18,,,,29,,,,28,,,*45
1336333025470;$GPGGA,072118.0,2836.622575,N,07721.881469,E,1,06,2.1,203.2,M,-38.0,M,,*76
1336333025478;$GPVTG,275.0,T,274.2,M,28.6,N,53.0,K,A*2A
1336333025484;$GPRMC,072118.0,A,2836.622575,N,07721.881469,E,28.6,275.0,070512,0.8,E,A*3A
1336333025493;$GPGSA,A,3,16,20,23,30,31,32,,,,,,,2.3,2.1,1.0*35
1336333026439;$GPGSV,4,1,16,20,58,282,32,16,61,142,28,30,61,071,27,23,33,316,24*74
1336333026445;$GPGSV,4,2,16,32,73,208,23,01,12,226,,03,08,156,,06,09,140,*71
1336333026473;$GPGSV,4,3,16,07,02,246,,11,02,210,,13,06,299,,14,04,101,*7A
1336333026479;$GPGSV,4,4,16,31,24,043,,18,,,,29,,,,28,,,*45
1336333026505;$GPGGA,072119.0,2836.623414,N,07721.871972,E,1,05,2.4,203.1,M,-38.0,M,,*7D
1336333026512;$GPVTG,274.7,T,273.9,M,29.1,N,53.9,K,A*2F
1336333026542;$GPRMC,072119.0,A,2836.623414,N,07721.871972,E,29.1,274.7,070512,0.8,E,A*34
1336333026553;$GPGSA,A,3,16,20,23,30,32,,,,,,,,2.6,2.4,1.0*37
1336333027439;$GPGSV,4,1,16,20,58,282,31,16,61,142,27,23,33,316,27,30,61,071,27*7B
1336333027448;$GPGSV,4,2,16,01,12,226,,03,08,156,,06,09,140,,07,02,246,*7A
1336333027455;$GPGSV,4,3,16,11,02,210,,13,06,299,,14,04,101,,31,24,043,*7C
1336333027463;$GPGSV,4,4,16,32,73,208,,18,,,,29,,,,28,,,*49
1336333027477;$GPGGA,072120.0,2836.623890,N,07721.862661,E,1,05,2.4,202.9,M,-38.0,M,,*71
1336333027484;$GPVTG,274.3,T,273.5,M,29.4,N,54.4,K,A*28
1336333027490;$GPRMC,072120.0,A,2836.623890,N,07721.862661,E,29.4,274.3,070512,0.8,E,A*30
1336333027503;$GPGSA,A,3,16,20,23,30,32,,,,,,,,2.6,2.4,1.0*37
1336333028441;$GPGSV,4,1,16,20,58,282,31,30,61,071,28,23,33,316,27,16,61,142,27*74
1336333028445;$GPGSV,4,2,16,32,73,208,23,01,12,226,,03,08,156,,06,09,140,*71
1336333028449;$GPGSV,4,3,16,07,02,246,,11,02,210,,13,06,299,,14,04,101,*7A
1336333028457;$GPGSV,4,4,16,31,24,043,,18,,,,29,,,,28,,,*45
1336333028468;$GPGGA,072121.0,2836.622972,N,07721.852869,E,1,05,2.1,203.1,M,-38.0,M,,*75
1336333028472;$GPVTG,271.9,T,271.1,M,29.5,N,54.6,K,A*22
1336333028477;$GPRMC,072121.0,A,2836.622972,N,07721.852869,E,29.5,271.9,070512,0.8,E,A*36
1336333028493;$GPGSA,A,3,16,20,23,30,32,,,,,,,,2.3,2.1,1.0*37
1336333029439;$GPGSV,4,1,16,20,58,282,32,23,33,316,30,16,61,142,30,30,61,071,28*77
1336333029445;$GPGSV,4,2,16,32,73,208,27,01,12,226,,03,08,156,,06,09,140,*75
1336333029453;$GPGSV,4,3,16,07,02,246,,11,02,210,,13,06,299,,14,04,101,*7A
1336333029461;$GPGSV,4,4,16,31,24,043,,18,,,,29,,,,28,,,*45
1336333029471;$GPGGA,072122.0,2836.624664,N,07721.841490,E,1,05,2.1,203.1,M,-38.0,M,,*70
1336333029477;$GPVTG,273.3,T,272.5,M,30.4,N,56.2,K,A*22
1336333029482;$GPRMC,072122.0,A,2836.624664,N,07721.841490,E,30.4,273.3,070512,0.8,E,A*32
1336333029494;$GPGSA,A,3,16,20,23,30,32,,,,,,,,2.3,2.1,1.0*37
1336333030441;$GPGSV,4,1,16,20,58,282,32,23,33,316,30,16,61,142,30,30,61,071,28*77
1336333030451;$GPGSV,4,2,16,32,73,208,27,01,12,226,,03,08,156,,06,09,140,*75
1336333030457;$GPGSV,4,3,16,07,02,246,,11,02,210,,13,06,299,,14,04,101,*7A
1336333030465;$GPGSV,4,4,16,31,24,043,,18,,,,29,,,,28,,,*45
1336333030491;$GPGGA,072122.9,2836.625145,N,07721.831933,E,1,05,2.1,203.0,M,-38.0,M,,*7E
1336333030502;$GPVTG,273.3,T,272.5,M,30.4,N,56.2,K,A*22
1336333030506;$GPRMC,072122.9,A,2836.625145,N,07721.831933,E,30.4,273.3,070512,0.8,E,A*3D
1336333030522;$GPGSA,A,3,16,20,23,30,32,,,,,,,,2.3,2.1,1.0*37
1336333031440;$GPGSV,4,1,16,20,58,282,32,23,33,316,30,16,61,142,30,30,61,071,28*77
1336333031445;$GPGSV,4,2,16,32,73,208,27,01,12,226,,03,08,156,,06,09,140,*75
1336333031451;$GPGSV,4,3,16,07,02,246,,11,02,210,,13,06,299,,14,04,101,*7A
1336333031459;$GPGSV,4,4,16,31,24,043,,18,,,,29,,,,28,,,*45
1336333031470;$GPGGA,072123.9,2836.625626,N,07721.822365,E,1,05,2.1,202.9,M,-38.0,M,,*7E
1336333031477;$GPVTG,273.3,T,272.5,M,30.4,N,56.2,K,A*22
1336333031479;$GPRMC,072123.9,A,2836.625626,N,07721.822365,E,30.4,273.3,070512,0.8,E,A*35
1336333031500;$GPGSA,A,3,16,20,23,30,32,,,,,,,,2.3,2.1,1.0*37
1336333032438;$GPGSV,4,1,16,01,12,226,,03,08,156,,06,09,140,,07,02,246,*79
1336333032443;$GPGSV,4,2,16,11,02,210,,13,06,299,,14,04,101,,16,61,142,*79
1336333032447;$GPGSV,4,3,16,20,58,282,,23,33,316,,30,61,071,,31,24,043,*7A
1336333032454;$GPGSV,4,4,16,32,73,208,,29,,,,28,,,,27,,,*45
1336333032464;$GPGGA,072125.0,2836.626119,N,07721.812835,E,1,05,666.6,203.0,M,-38.0,M,,*7F
1336333032483;$GPVTG,273.3,T,273.3,M,30.3,N,56.2,K,A*22
1336333032485;$GPRMC,072125.0,A,2836.626119,N,07721.812835,E,30.3,273.3,070512,,,A*5B
1336333032487;$GPGSA,A,3,16,20,23,30,32,,,,,,,,666.6,666.6,666.6*34
1336333033441;$GPGSV,4,1,16,01,12,226,,03,08,156,,06,09,140,,07,02,246,*79
1336333033459;$GPGSV,4,2,16,11,02,210,,13,06,299,,14,04,101,,16,61,142,*79
1336333033462;$GPGSV,4,3,16,20,58,282,,23,33,316,,30,61,071,,31,24,043,*7A
1336333033471;$GPGSV,4,4,16,32,73,208,,29,,,,28,,,,27,,,*45
1336333033475;$GPGGA,072126.0,2836.626607,N,07721.803303,E,1,05,666.6,203.0,M,-38.0,M,,*7A
1336333033482;$GPVTG,273.3,T,273.3,M,30.3,N,56.1,K,A*21
1336333033492;$GPRMC,072126.0,A,2836.626607,N,07721.803303,E,30.3,273.3,070512,,,A*5E
1336333033512;$GPGSA,A,3,16,20,23,30,32,,,,,,,,666.6,666.6,666.6*34
1336333034441;$GPGSV,4,1,16,23,33,316,33,32,73,208,31,20,58,282,30,01,12,226,*73
1336333034447;$GPGSV,4,2,16,03,08,156,,06,09,140,,07,02,246,,11,02,210,*7F
1336333034451;$GPGSV,4,3,16,13,06,299,,14,04,101,,16,61,142,,30,61,071,*7B
1336333034459;$GPGSV,4,4,16,31,24,043,,29,,,,28,,,,27,,,*49
1336333034481;$GPGGA,072127.0,2836.624909,N,07721.793658,E,1,05,7.1,203.1,M,-38.0,M,,*72
1336333034486;$GPVTG,270.5,T,269.7,M,29.9,N,55.4,K,A*2F
1336333034489;$GPRMC,072127.0,A,2836.624909,N,07721.793658,E,29.9,270.5,070512,0.8,E,A*35
1336333034504;$GPGSA,A,3,16,20,23,30,32,,,,,,,,7.2,7.1,1.0*36
1336333035439;$GPGSV,4,1,16,23,33,316,32,16,61,142,31,32,73,208,30,20,58,282,30*72
1336333035446;$GPGSV,4,2,16,30,61,071,26,03,08,156,23,31,24,043,23,01,12,226,*70
1336333035451;$GPGSV,4,3,16,06,09,140,,07,02,246,,11,02,210,,13,06,299,*71
1336333035460;$GPGSV,4,4,16,14,04,101,,29,,,,28,,,,27,,,*4B
1336333035470;$GPGGA,072128.0,2836.623893,N,07721.791460,E,1,07,1.2,202.7,M,-38.0,M,,*73
1336333035476;$GPVTG,270.3,T,269.5,M,25.0,N,46.3,K,A*2B
1336333035480;$GPRMC,072128.0,A,2836.623893,N,07721.791460,E,25.0,270.3,070512,0.8,E,A*37
1336333035496;$GPGSA,A,3,03,16,20,23,30,31,32,,,,,,1.9,1.2,1.5*3A
1336333036440;$GPGSV,4,1,16,32,73,208,31,16,61,142,30,20,58,282,28,30,61,071,28*77
1336333036446;$GPGSV,4,2,16,23,33,316,28,31,24,043,24,03,08,156,23,01,12,226,*7E
1336333036451;$GPGSV,4,3,16,06,09,140,,07,02,246,,11,02,210,,13,06,299,*71
1336333036458;$GPGSV,4,4,16,14,04,101,,29,,,,28,,,,27,,,*4B
1336333036468;$GPGGA,072129.0,2836.622549,N,07721.784461,E,1,07,2.1,202.4,M,-38.0,M,,*7F
1336333036475;$GPVTG,271.3,T,270.5,M,22.5,N,41.7,K,A*23
1336333036478;$GPRMC,072129.0,A,2836.622549,N,07721.784461,E,22.5,271.3,070512,0.8,E,A*3B
1336333036493;$GPGSA,A,3,03,16,20,23,30,31,32,,,,,,2.3,2.1,1.0*36
1336333037438;$GPGSV,4,1,16,20,58,282,31,32,73,208,30,16,61,142,29,23,33,316,28*71
1336333037447;$GPGSV,4,2,16,30,61,071,25,01,12,226,,03,08,156,,06,09,140,*7A
1336333037463;$GPGSV,4,3,16,07,02,246,,11,02,210,,13,06,299,,14,04,101,*7A
1336333037469;$GPGSV,4,4,16,31,24,043,,29,,,,28,,,,27,,,*49
1336333037483;$GPGGA,072130.0,2836.622638,N,07721.777853,E,1,07,2.1,202.2,M,-38.0,M,,*75
1336333037495;$GPVTG,270.7,T,269.9,M,21.5,N,39.8,K,A*21
1336333037500;$GPRMC,072130.0,A,2836.622638,N,07721.777853,E,21.5,270.7,070512,0.8,E,A*31
1336333037511;$GPGSA,A,3,03,16,20,23,30,31,32,,,,,,2.3,2.1,1.0*36
1336333038439;$GPGSV,4,1,16,20,58,282,31,32,73,208,30,16,61,142,29,23,33,316,28*71
1336333038445;$GPGSV,4,2,16,30,61,071,25,01,12,226,,03,08,156,,06,09,140,*7A
1336333038460;$GPGSV,4,3,16,07,02,246,,11,02,210,,13,06,299,,14,04,101,*7A
1336333038468;$GPGSV,4,4,16,31,24,043,,29,,,,28,,,,27,,,*49
1336333038477;$GPGGA,072130.9,2836.622707,N,07721.771081,E,1,07,2.1,202.0,M,-38.0,M,,*72
1336333038482;$GPVTG,270.7,T,269.9,M,21.5,N,39.8,K,A*21
1336333038484;$GPRMC,072130.9,A,2836.622707,N,07721.771081,E,21.5,270.7,070512,0.8,E,A*34
1336333038502;$GPGSA,A,3,03,16,20,23,30,31,32,,,,,,2.3,2.1,1.0*36
1336333039439;$GPGSV,4,1,16,20,58,282,29,32,73,208,28,23,33,316,28,16,61,142,27*7F
1336333039452;$GPGSV,4,2,16,30,61,071,23,31,24,043,21,01,12,226,,03,08,156,*76
1336333039475;$GPGSV,4,3,16,06,09,140,,07,02,246,,11,02,210,,13,06,299,*71
1336333039485;$GPGSV,4,4,16,14,04,101,,29,,,,28,,,,27,,,*4B
1336333039522;$GPGGA,072132.0,2836.623684,N,07721.768572,E,1,07,1.5,202.0,M,-38.0,M,,*74
1336333039532;$GPVTG,270.2,T,269.4,M,15.7,N,29.0,K,A*25
1336333039553;$GPRMC,072132.0,A,2836.623684,N,07721.768572,E,15.7,270.2,070512,0.8,E,A*35
1336333039562;$GPGSA,A,3,03,16,20,23,30,31,32,,,,,,1.8,1.5,1.0*39
1336333040439;$GPGSV,4,1,16,20,58,282,29,32,73,208,28,23,33,316,28,16,61,142,27*7F
1336333040451;$GPGSV,4,2,16,30,61,071,23,31,24,043,21,01,12,226,,03,08,156,*76
1336333040459;$GPGSV,4,3,16,06,09,140,,07,02,246,,11,02,210,,13,06,299,*71
1336333040482;$GPGSV,4,4,16,14,04,101,,29,,,,28,,,,27,,,*4B
1336333040490;$GPGGA,072132.9,2836.623702,N,07721.763634,E,1,07,1.5,201.8,M,-38.0,M,,*73
1336333040506;$GPVTG,270.2,T,269.4,M,15.7,N,29.0,K,A*25
1336333040512;$GPRMC,072132.9,A,2836.623702,N,07721.763634,E,15.7,270.2,070512,0.8,E,A*39
1336333040535;$GPGSA,A,3,03,16,20,23,30,31,32,,,,,,1.8,1.5,1.0*39
1336333041438;$GPGSV,4,1,16,20,58,282,31,23,33,316,31,30,61,071,26,32,73,208,23*71
1336333041444;$GPGSV,4,2,16,16,61,142,21,31,24,043,21,01,12,226,,03,08,156,*71
1336333041473;$GPGSV,4,3,16,06,09,140,,07,02,246,,11,02,210,,13,06,299,*71
1336333041479;$GPGSV,4,4,16,14,04,101,,29,,,,28,,,,27,,,*4B
1336333041492;$GPGGA,072134.0,2836.624061,N,07721.760979,E,1,07,2.1,202.0,M,-38.0,M,,*70
1336333041514;$GPVTG,267.6,T,266.8,M,13.1,N,24.3,K,A*2A
1336333041517;$GPRMC,072134.0,A,2836.624061,N,07721.760979,E,13.1,267.6,070512,0.8,E,A*34
1336333041550;$GPGSA,A,3,03,16,20,23,30,31,32,,,,,,2.3,2.1,1.0*36
1336333042438;$GPGSV,4,1,16,23,33,316,34,20,58,282,32,16,61,142,30,30,61,071,28*73
1336333042445;$GPGSV,4,2,16,32,73,208,27,01,12,226,,03,08,156,,06,09,140,*75
1336333042464;$GPGSV,4,3,16,07,02,246,,11,02,210,,13,06,299,,14,04,101,*7A
1336333042473;$GPGSV,4,4,16,31,24,043,,29,,,,28,,,,27,,,*49
1336333042492;$GPGGA,072135.0,2836.623820,N,07721.758512,E,1,06,2.1,201.7,M,-38.0,M,,*74
1336333042502;$GPVTG,264.7,T,263.9,M,11.4,N,21.1,K,A*2C
1336333042512;$GPRMC,072135.0,A,2836.623820,N,07721.758512,E,11.4,264.7,070512,0.8,E,A*30
1336333042523;$GPGSA,A,3,16,20,23,30,31,32,,,,,,,2.3,2.1,1.0*35
1336333043438;$GPGSV,4,1,16,23,33,316,36,20,58,282,31,30,61,071,31,16,61,142,29*72
1336333043464;$GPGSV,4,2,16,32,73,208,26,01,12,226,,03,08,156,,06,09,140,*74
1336333043491;$GPGSV,4,3,16,07,02,246,,11,02,210,,13,06,299,,14,04,101,*7A
1336333043496;$GPGSV,4,4,16,31,24,043,,29,,,,28,,,,27,,,*49
1336333043514;$GPGGA,072136.0,2836.624033,N,07721.758423,E,1,06,2.1,202.0,M,-38.0,M,,*7D
1336333043527;$GPVTG,275.6,T,274.8,M,7.4,N,13.7,K,A*1A
1336333043572;$GPRMC,072136.0,A,2836.624033,N,07721.758423,E,7.4,275.6,070512,0.8,E,A*0B
1336333043601;$GPGSA,A,3,16,20,23,30,31,32,,,,,,,2.3,2.1,1.0*35
1336333044439;$GPGSV,4,1,16,20,58,282,32,23,33,316,32,16,61,142,31,30,61,071,29*75
1336333044463;$GPGSV,4,2,16,32,73,208,27,01,12,226,,03,08,156,,06,09,140,*75
1336333044471;$GPGSV,4,3,16,07,02,246,,11,02,210,,13,06,299,,14,04,101,*7A
1336333044494;$GPGSV,4,4,16,31,24,043,,29,,,,28,,,,27,,,*49
1336333044506;$GPGGA,072137.0,2836.624491,N,07721.756086,E,1,06,2.1,201.9,M,-38.0,M,,*7F
1336333044541;$GPVTG,275.1,T,274.3,M,7.4,N,13.8,K,A*19
1336333044558;$GPRMC,072137.0,A,2836.624491,N,07721.756086,E,7.4,275.1,070512,0.8,E,A*04
1336333044581;$GPGSA,A,3,16,20,23,30,31,32,,,,,,,2.3,2.1,1.0*35
1336333045439;$GPGSV,4,1,16,20,58,282,32,23,33,316,32,16,61,142,31,30,61,071,29*75
1336333045472;$GPGSV,4,2,16,32,73,208,27,01,12,226,,03,08,156,,06,09,140,*75
1336333045478;$GPGSV,4,3,16,07,02,246,,11,02,210,,13,06,299,,14,04,101,*7A
1336333045489;$GPGSV,4,4,16,31,24,043,,29,,,,28,,,,27,,,*49
1336333045515;$GPGGA,072137.9,2836.624675,N,07721.753749,E,1,06,2.1,201.8,M,-38.0,M,,*7E
1336333045533;$GPVTG,275.1,T,274.3,M,7.4,N,13.8,K,A*19
1336333045536;$GPRMC,072137.9,A,2836.624675,N,07721.753749,E,7.4,275.1,070512,0.8,E,A*04
1336333045574;$GPGSA,A,3,16,20,23,30,31,32,,,,,,,2.3,2.1,1.0*35
1336333046440;$GPGSV,4,1,16,16,61,142,29,20,58,282,29,30,61,071,28,32,73,208,21*7F
1336333046472;$GPGSV,4,2,16,23,33,316,19,01,12,226,,03,08,156,,06,09,140,*72
1336333046482;$GPGSV,4,3,16,07,02,246,,11,02,210,,13,06,299,,14,04,101,*7A
1336333046492;$GPGSV,4,4,16,31,24,043,,29,,,,28,,,,27,,,*49
1336333046512;$GPGGA,072138.9,2836.624574,N,07721.751218,E,1,05,2.1,201.6,M,-38.0,M,,*7D
1336333046522;$GPVTG,272.8,T,272.0,M,7.8,N,14.5,K,A*14
1336333046533;$GPRMC,072138.9,A,2836.624574,N,07721.751218,E,7.8,272.8,070512,0.8,E,A*08
1336333046537;$GPGSA,A,3,16,20,23,30,32,,,,,,,,2.3,2.1,1.0*37
1336333047440;$GPGSV,4,1,16,20,58,282,34,23,33,316,34,32,73,208,27,16,61,142,25*73
1336333047455;$GPGSV,4,2,16,30,61,071,24,01,12,226,,03,08,156,,06,09,140,*7B
1336333047475;$GPGSV,4,3,16,07,02,246,,11,02,210,,13,06,299,,14,04,101,*7A
1336333047481;$GPGSV,4,4,16,31,24,043,,29,,,,28,,,,27,,,*49
1336333047499;$GPGGA,072140.0,2836.623985,N,07721.749307,E,1,05,2.1,201.4,M,-38.0,M,,*7A
1336333047507;$GPVTG,276.1,T,275.3,M,8.9,N,16.5,K,A*11
1336333047525;$GPRMC,072140.0,A,2836.623985,N,07721.749307,E,8.9,276.1,070512,0.8,E,A*0E
1336333047556;$GPGSA,A,3,16,20,23,30,32,,,,,,,,2.3,2.1,1.0*37
1336333048442;$GPGSV,4,1,16,23,33,316,30,20,58,282,28,16,61,142,25,32,73,208,22*7F
1336333048448;$GPGSV,4,2,16,30,61,071,22,01,12,226,,03,08,156,,06,09,140,*7D
1336333048464;$GPGSV,4,3,16,07,02,246,,11,02,210,,13,06,299,,14,04,101,*7A
1336333048471;$GPGSV,4,4,16,31,24,043,,29,,,,28,,,,27,,,*49
1336333048517;$GPGGA,072141.0,2836.624215,N,07721.745335,E,1,05,2.1,201.5,M,-38.0,M,,*72
1336333048525;$GPVTG,274.9,T,274.1,M,10.7,N,19.8,K,A*2D
1336333048533;$GPRMC,072141.0,A,2836.624215,N,07721.745335,E,10.7,274.9,070512,0.8,E,A*3A
1336333048544;$GPGSA,A,3,16,20,23,30,32,,,,,,,,2.3,2.1,1.0*37
1336333049442;$GPGSV,4,1,16,23,33,316,32,20,58,282,31,30,61,071,25,16,61,142,25*7F
1336333049451;$GPGSV,4,2,16,32,73,208,21,01,12,226,,03,08,156,,06,09,140,*73
1336333049475;$GPGSV,4,3,16,07,02,246,,11,02,210,,13,06,299,,14,04,101,*7A
1336333049483;$GPGSV,4,4,16,31,24,043,,29,,,,28,,,,27,,,*49
1336333049507;$GPGGA,072142.0,2836.625461,N,07721.741029,E,1,05,2.1,201.2,M,-38.0,M,,*78
1336333049514;$GPVTG,279.7,T,278.9,M,12.2,N,22.5,K,A*28
1336333049527;$GPRMC,072142.0,A,2836.625461,N,07721.741029,E,12.2,279.7,070512,0.8,E,A*33
1336333049562;$GPGSA,A,3,16,20,23,30,32,,,,,,,,2.3,2.1,1.0*37
1336333050442;$GPGSV,4,1,16,23,33,316,32,20,58,282,31,30,61,071,25,16,61,142,25*7F
1336333050452;$GPGSV,4,2,16,32,73,208,21,01,12,226,,03,08,156,,06,09,140,*73
1336333050462;$GPGSV,4,3,16,07,02,246,,11,02,210,,13,06,299,,14,04,101,*7A
1336333050479;$GPGSV,4,4,16,31,24,043,,29,,,,28,,,,27,,,*49
1336333050522;$GPGGA,072142.9,2836.626033,N,07721.737247,E,1,05,2.1,201.4,M,-38.0,M,,*7C
1336333050538;$GPVTG,279.7,T,278.9,M,12.2,N,22.5,K,A*28
1336333050549;$GPRMC,072142.9,A,2836.626033,N,07721.737247,E,12.2,279.7,070512,0.8,E,A*31
1336333050562;$GPGSA,A,3,16,20,23,30,32,,,,,,,,2.3,2.1,1.0*37
1336333051452;$GPGSV,4,1,16,20,58,282,34,23,33,316,33,30,61,071,25,16,61,142,23*7D
1336333051462;$GPGSV,4,2,16,32,73,208,21,01,12,226,,03,08,156,,06,09,140,*73
1336333051472;$GPGSV,4,3,16,07,02,246,,11,02,210,,13,06,299,,14,04,101,*7A
1336333051482;$GPGSV,4,4,16,31,24,043,,29,,,,28,,,,27,,,*49
1336333051513;$GPGGA,072144.0,2836.628247,N,07721.732092,E,1,05,2.1,201.0,M,-38.0,M,,*77
1336333051533;$GPVTG,283.0,T,282.2,M,14.1,N,26.0,K,A*20
1336333051553;$GPRMC,072144.0,A,2836.628247,N,07721.732092,E,14.1,283.0,070512,0.8,E,A*39
1336333051571;$GPGSA,A,3,16,20,23,30,32,,,,,,,,2.3,2.1,1.0*37
1336333052452;$GPGSV,4,1,16,20,58,282,33,23,33,316,32,32,73,208,27,30,61,071,24*76
1336333052466;$GPGSV,4,2,16,16,61,142,23,01,12,226,,03,08,156,,06,09,140,*79
1336333052501;$GPGSV,4,3,16,07,02,246,,11,02,210,,13,06,299,,14,04,101,*7A
1336333052512;$GPGSV,4,4,16,31,24,043,,29,,,,28,,,,27,,,*49
1336333052531;$GPGGA,072145.0,2836.629924,N,07721.727636,E,1,05,2.2,200.8,M,-38.0,M,,*7F
1336333052544;$GPVTG,283.0,T,282.2,M,15.3,N,28.3,K,A*2E
1336333052551;$GPRMC,072145.0,A,2836.629924,N,07721.727636,E,15.3,283.0,070512,0.8,E,A*38
1336333052562;$GPGSA,A,3,16,20,23,30,32,,,,,,,,2.4,2.2,1.0*33
1336333053438;$GPGSV,4,1,16,20,58,282,33,23,33,316,32,32,73,208,26,30,61,071,26*75
1336333053472;$GPGSV,4,2,16,16,61,142,22,01,12,226,,03,08,156,,06,09,140,*78
1336333053479;$GPGSV,4,3,16,07,02,246,,11,02,210,,13,06,299,,14,04,101,*7A
1336333053484;$GPGSV,4,4,16,31,24,043,,29,,,,28,,,,27,,,*49
1336333053493;$GPGGA,072146.0,2836.632166,N,07721.721752,E,1,05,2.1,200.5,M,-38.0,M,,*73
1336333053508;$GPVTG,283.7,T,282.9,M,17.0,N,31.5,K,A*2D
1336333053529;$GPRMC,072146.0,A,2836.632166,N,07721.721752,E,17.0,283.7,070512,0.8,E,A*3C
1336333053565;$GPGSA,A,3,16,20,23,30,32,,,,,,,,2.3,2.1,1.0*37
1336333054438;$GPGSV,4,1,16,20,58,282,33,23,33,316,32,32,73,208,26,30,61,071,26*75
1336333054464;$GPGSV,4,2,16,16,61,142,22,01,12,226,,03,08,156,,06,09,140,*78
1336333054471;$GPGSV,4,3,16,07,02,246,,11,02,210,,13,06,299,,14,04,101,*7A
1336333054477;$GPGSV,4,4,16,31,24,043,,29,,,,28,,,,27,,,*49
1336333054514;$GPGGA,072147.0,2836.633290,N,07721.716545,E,1,05,2.1,200.5,M,-38.0,M,,*79
1336333054520;$GPVTG,283.7,T,282.9,M,17.0,N,31.5,K,A*2D
1336333054552;$GPRMC,072147.0,A,2836.633290,N,07721.716545,E,17.0,283.7,070512,0.8,E,A*36
1336333054574;$GPGSA,A,3,16,20,23,30,32,,,,,,,,2.3,2.1,1.0*37
1336333055437;$GPGSV,4,1,16,20,58,282,31,23,33,316,30,32,73,208,26,30,61,071,26*75
1336333055441;$GPGSV,4,2,16,16,61,142,19,01,12,226,,03,08,156,,06,09,140,*70
1336333055458;$GPGSV,4,3,16,07,02,246,,11,02,210,,13,06,299,,14,04,101,*7A
1336333055504;$GPGSV,4,4,16,31,24,043,,29,,,,28,,,,27,,,*49
1336333055512;$GPGGA,072148.0,2836.634837,N,07721.709794,E,1,05,2.4,200.3,M,-38.0,M,,*75
1336333055532;$GPVTG,284.0,T,283.2,M,18.2,N,33.7,K,A*2A
1336333055551;$GPRMC,072148.0,A,2836.634837,N,07721.709794,E,18.2,284.0,070512,0.8,E,A*34
1336333055575;$GPGSA,A,3,16,20,23,30,32,,,,,,,,2.6,2.4,1.0*37
1336333056439;$GPGSV,4,1,16,20,58,282,31,23,33,316,30,32,73,208,26,30,61,071,26*75
1336333056463;$GPGSV,4,2,16,16,61,142,19,01,12,226,,03,08,156,,06,09,140,*70
1336333056470;$GPGSV,4,3,16,07,02,246,,11,02,210,,13,06,299,,14,04,101,*7A
1336333056492;$GPGSV,4,4,16,31,24,043,,29,,,,28,,,,27,,,*49
1336333056505;$GPGGA,072149.0,2836.636064,N,07721.704225,E,1,05,2.4,200.2,M,-38.0,M,,*7B
1336333056552;$GPVTG,284.0,T,283.2,M,18.2,N,33.7,K,A*2A
1336333056556;$GPRMC,072149.0,A,2836.636064,N,07721.704225,E,18.2,284.0,070512,0.8,E,A*3B
1336333056572;$GPGSA,A,3,16,20,23,30,32,,,,,,,,2.6,2.4,1.0*37
1336333057438;$GPGSV,4,1,16,20,58,282,31,23,33,316,31,32,73,208,23,30,61,071,21*76
1336333057471;$GPGSV,4,2,16,16,61,142,19,01,12,226,,03,08,156,,06,09,140,*70
1336333057480;$GPGSV,4,3,16,07,02,246,,11,02,210,,13,06,299,,14,04,101,*7A
1336333057491;$GPGSV,4,4,16,31,24,043,,29,,,,28,,,,27,,,*49
1336333057518;$GPGGA,072150.0,2836.636913,N,07721.696718,E,1,05,2.1,200.0,M,-38.0,M,,*7C
1336333057527;$GPVTG,282.2,T,281.4,M,19.5,N,36.1,K,A*2F
1336333057557;$GPRMC,072150.0,A,2836.636913,N,07721.696718,E,19.5,282.2,070512,0.8,E,A*39
1336333057593;$GPGSA,A,3,16,20,23,30,32,,,,,,,,2.3,2.1,1.0*37
1336333058442;$GPGSV,4,1,16,20,58,282,31,23,33,316,31,32,73,208,27,30,61,071,21*72
1336333058463;$GPGSV,4,2,16,16,61,142,20,01,12,226,,03,08,156,,06,09,140,*7A
1336333058469;$GPGSV,4,3,16,07,02,246,,11,02,210,,13,06,299,,14,04,101,*7A
1336333058491;$GPGSV,4,4,16,31,24,043,,29,,,,28,,,,27,,,*49
1336333058502;$GPGGA,072151.0,2836.637538,N,07721.688750,E,1,05,2.1,200.0,M,-38.0,M,,*7A
1336333058529;$GPVTG,280.6,T,279.8,M,20.5,N,38.0,K,A*27
1336333058551;$GPRMC,072151.0,A,2836.637538,N,07721.688750,E,20.5,280.6,070512,0.8,E,A*33
1336333058592;$GPGSA,A,3,16,20,23,30,32,,,,,,,,2.3,2.1,1.0*37
1336333059447;$GPGSV,4,1,16,23,33,316,31,20,58,282,31,32,73,208,27,30,61,071,22*71
1336333059472;$GPGSV,4,2,16,16,61,142,20,01,12,226,,03,08,156,,06,09,140,*7A
1336333059485;$GPGSV,4,3,16,07,02,246,,11,02,210,,13,06,299,,14,04,101,*7A
1336333059490;$GPGSV,4,4,16,31,24,043,,29,,,,28,,,,27,,,*49
1336333059523;$GPGGA,072152.0,2836.639312,N,07721.682691,E,1,05,2.1,200.0,M,-38.0,M,,*7F
1336333059531;$GPVTG,280.8,T,280.0,M,20.5,N,37.9,K,A*21
1336333059593;$GPRMC,072152.0,A,2836.639312,N,07721.682691,E,20.5,280.8,070512,0.8,E,A*38
1336333059615;$GPGSA,A,3,16,20,23,30,32,,,,,,,,2.3,2.1,1.0*37
1336333060441;$GPGSV,4,1,16,20,58,282,32,23,33,316,30,32,73,208,25,16,61,142,22*74
1336333060474;$GPGSV,4,2,16,30,61,071,21,01,12,226,,03,08,156,,06,09,140,*7E
1336333060479;$GPGSV,4,3,16,07,02,246,,11,02,210,,13,06,299,,14,04,101,*7A
1336333060496;$GPGSV,4,4,16,31,24,043,,29,,,,28,,,,27,,,*49
1336333060522;$GPGGA,072153.0,2836.639442,N,07721.675500,E,1,05,2.1,199.9,M,-38.0,M,,*75
1336333060533;$GPVTG,279.0,T,278.2,M,20.1,N,37.2,K,A*25
1336333060552;$GPRMC,072153.0,A,2836.639442,N,07721.675500,E,20.1,279.0,070512,0.8,E,A*32
1336333060562;$GPGSA,A,3,16,20,23,30,32,,,,,,,,2.3,2.1,1.0*37
1336333061440;$GPGSV,4,1,16,20,58,282,33,23,33,316,30,32,73,208,25,16,61,142,22*75
1336333061483;$GPGSV,4,2,16,30,61,071,22,01,12,226,,03,08,156,,06,09,140,*7D
1336333061489;$GPGSV,4,3,16,07,02,246,,11,02,210,,13,06,299,,14,04,101,*7A
1336333061508;$GPGSV,4,4,16,31,24,043,,29,,,,28,,,,27,,,*49
1336333061545;$GPGGA,072154.0,2836.638588,N,07721.668659,E,1,05,2.1,200.0,M,-38.0,M,,*7D
1336333061551;$GPVTG,276.7,T,275.9,M,19.6,N,36.2,K,A*27
1336333061554;$GPRMC,072154.0,A,2836.638588,N,07721.668659,E,19.6,276.7,070512,0.8,E,A*35
1336333061582;$GPGSA,A,3,16,20,23,30,32,,,,,,,,2.3,2.1,1.0*37
1336333062437;$GPGSV,4,1,16,20,58,282,33,23,33,316,30,16,61,142,25,32,73,208,25*72
1336333062443;$GPGSV,4,2,16,30,61,071,24,01,12,226,,03,08,156,,06,09,140,*7B
1336333062466;$GPGSV,4,3,16,07,02,246,,11,02,210,,13,06,299,,14,04,101,*7A
1336333062470;$GPGSV,4,4,16,31,24,043,,29,,,,28,,,,27,,,*49
1336333062481;$GPGGA,072155.0,2836.639631,N,07721.662205,E,1,05,2.1,200.1,M,-38.0,M,,*7A
1336333062487;$GPVTG,276.5,T,275.7,M,18.7,N,34.6,K,A*2D
1336333062491;$GPRMC,072155.0,A,2836.639631,N,07721.662205,E,18.7,276.5,070512,0.8,E,A*31
1336333062531;$GPGSA,A,3,16,20,23,30,32,,,,,,,,2.3,2.1,1.0*37
1336333063438;$GPGSV,4,1,16,20,58,282,34,23,33,316,32,32,73,208,28,16,61,142,23*7C
1336333063445;$GPGSV,4,2,16,30,61,071,22,03,08,156,19,01,12,226,,06,09,140,*75
1336333063462;$GPGSV,4,3,16,07,02,246,,11,02,210,,13,06,299,,14,04,101,*7A
1336333063469;$GPGSV,4,4,16,31,24,043,,29,,,,28,,,,27,,,*49
1336333063487;$GPGGA,072156.0,2836.639764,N,07721.655763,E,1,06,1.8,200.0,M,-38.0,M,,*71
1336333063493;$GPVTG,273.6,T,272.8,M,17.5,N,32.4,K,A*2A
1336333063502;$GPRMC,072156.0,A,2836.639764,N,07721.655763,E,17.5,273.6,070512,0.8,E,A*39
1336333063561;$GPGSA,A,3,03,16,20,23,30,32,,,,,,,2.5,1.8,1.7*3F
1336333064437;$GPGSV,4,1,16,20,58,282,34,23,33,316,32,32,73,208,29,16,61,142,24*7A
1336333064473;$GPGSV,4,2,16,30,61,071,22,03,08,156,19,01,12,226,,06,09,140,*75
1336333064478;$GPGSV,4,3,16,07,02,246,,11,02,210,,13,06,299,,14,04,101,*7A
1336333064492;$GPGSV,4,4,16,31,24,043,,29,,,,28,,,,27,,,*49
1336333064522;$GPGGA,072157.0,2836.640388,N,07721.650831,E,1,06,3.8,200.0,M,-38.0,M,,*77
1336333064545;$GPVTG,272.6,T,271.8,M,16.4,N,30.4,K,A*2A
